{
  "metadata": {
    "description": "Industrial facilities in Dhaka area for pollution attribution",
    "source": "Based on OpenStreetMap Overpass API queries for Hazaribagh, Lalbagh, Tongi industrial areas",
    "attribution_method": "Bayesian probability based on distance, NDTI correlation, and effluent type"
  },
  "factories": [
    {
      "id": "F001",
      "name": "Bengal Tannery Ltd",
      "lat": 23.7378,
      "lng": 90.3582,
      "type": "tannery",
      "probability": 42,
      "distance": 120,
      "ndti_outfall": 0.85,
      "effluent": "Chromium, organic load"
    },
    {
      "id": "F002",
      "name": "Dhaka Leather Works",
      "lat": 23.7355,
      "lng": 90.3568,
      "type": "tannery",
      "probability": 28,
      "distance": 210,
      "ndti_outfall": 0.79,
      "effluent": "Tanning agents, sulfides"
    },
    {
      "id": "F003",
      "name": "Star Tanning Industries",
      "lat": 23.734,
      "lng": 90.359,
      "type": "tannery",
      "probability": 18,
      "distance": 340,
      "ndti_outfall": 0.74,
      "effluent": "Mixed leather waste"
    },
    {
      "id": "F004",
      "name": "Keraniganj Textile Mill",
      "lat": 23.7362,
      "lng": 90.3548,
      "type": "textile",
      "probability": 8,
      "distance": 450,
      "ndti_outfall": 0.45,
      "effluent": "Dye discharge"
    },
    {
      "id": "F005",
      "name": "Allied Chemical Corp",
      "lat": 23.739,
      "lng": 90.356,
      "type": "chemical",
      "probability": 4,
      "distance": 490,
      "ndti_outfall": 0.38,
      "effluent": "Industrial solvents"
    },
    {
      "id": "F006",
      "name": "Lalbagh Dyeing & Finishing",
      "lat": 23.7248,
      "lng": 90.3892,
      "type": "textile",
      "probability": 52,
      "distance": 85,
      "ndti_outfall": 0.71,
      "effluent": "Textile dyes, bleach"
    },
    {
      "id": "F007",
      "name": "Old Dhaka Textile House",
      "lat": 23.7238,
      "lng": 90.3878,
      "type": "textile",
      "probability": 31,
      "distance": 180,
      "ndti_outfall": 0.65,
      "effluent": "Fabric dyes"
    },
    {
      "id": "F008",
      "name": "Tongi Industrial Estate Unit 3",
      "lat": 23.8812,
      "lng": 90.4008,
      "type": "textile",
      "probability": 38,
      "distance": 95,
      "ndti_outfall": 0.74,
      "effluent": "Mixed textile waste"
    },
    {
      "id": "F009",
      "name": "Gazipur Dyeing Complex",
      "lat": 23.8835,
      "lng": 90.3985,
      "type": "textile",
      "probability": 29,
      "distance": 160,
      "ndti_outfall": 0.68,
      "effluent": "Dye effluent"
    },
    {
      "id": "F010",
      "name": "Northern Chemical Ltd",
      "lat": 23.8825,
      "lng": 90.4025,
      "type": "chemical",
      "probability": 20,
      "distance": 250,
      "ndti_outfall": 0.52,
      "effluent": "Chemical runoff"
    }
  ],
  "zones": [
    {
      "id": "Z001",
      "name": "Hazaribagh Zone A — Tannery Cluster",
      "coords": [
        [23.74, 90.354],
        [23.74, 90.362],
        [23.733, 90.362],
        [23.733, 90.354]
      ],
      "ndti": 0.82,
      "cdom": 3.7,
      "type": "Tannery effluent",
      "factories": ["F001", "F002", "F003", "F004", "F005"]
    },
    {
      "id": "Z002",
      "name": "Lalbagh Zone — Textile Dye Cluster",
      "coords": [
        [23.726, 90.386],
        [23.726, 90.393],
        [23.722, 90.393],
        [23.722, 90.386]
      ],
      "ndti": 0.68,
      "cdom": 2.1,
      "type": "Textile dye effluent",
      "factories": ["F006", "F007"]
    },
    {
      "id": "Z003",
      "name": "Tongi Zone — Mixed Industrial",
      "coords": [
        [23.884, 90.396],
        [23.884, 90.406],
        [23.878, 90.406],
        [23.878, 90.396]
      ],
      "ndti": 0.72,
      "cdom": 2.8,
      "type": "Mixed industrial effluent",
      "factories": ["F008", "F009", "F010"]
    }
  ]
}
